id,timestamp,name,total_docks,docks_in_service,available_docks,available_bikes,percent_full,status,latitude,longitude
2,12/31/2019 11:55:54 PM,Buckingham Fountain,39,38,28,10,26,In Service,41.876511,-87.620548
3,12/31/2019 11:55:54 PM,Shedd Aquarium,55,54,42,12,22,In Service,41.867226,-87.615355
4,12/31/2019 11:55:54 PM,Burnham Harbor,23,23,11,12,52,In Service,41.856268,-87.613348
5,12/31/2019 11:55:54 PM,State St & Harrison St,23,23,15,8,35,In Service,41.874053,-87.627716
6,12/31/2019 11:55:54 PM,Dusable Harbor,39,39,35,4,10,In Service,41.886976,-87.612813
7,12/31/2019 11:55:54 PM,Field Blvd & South Water St,19,19,18,1,5,In Service,41.886349,-87.617517
9,12/31/2019 11:55:54 PM,Leavitt St & Archer Ave,15,15,5,10,67,In Service,41.828792,-87.680604
11,12/31/2019 11:55:54 PM,Jeffery Blvd & 71st St,11,11,3,8,73,In Service,41.766638,-87.576450
12,12/31/2019 11:55:54 PM,South Shore Dr & 71st St,15,15,13,2,13,In Service,41.766409,-87.565688
13,12/31/2019 11:55:54 PM,Wilton Ave & Diversey Pkwy,35,35,27,8,23,In Service,41.932418,-87.652705
14,12/31/2019 11:55:54 PM,Morgan St & 18th St,15,15,10,5,33,In Service,41.858086,-87.651073
15,12/31/2019 11:55:54 PM,Racine Ave & 18th St,15,15,9,6,40,In Service,41.858166,-87.656495
16,12/31/2019 11:55:54 PM,Paulina Ave & North Ave,15,15,10,5,33,In Service,41.910337,-87.670072
17,12/31/2019 11:55:54 PM,Honore St & Division St,23,23,16,7,30,In Service,41.903119,-87.673935
18,12/31/2019 11:55:54 PM,Wacker Dr & Washington St,19,19,15,4,21,In Service,41.883132,-87.637321
19,12/31/2019 11:55:54 PM,Throop (Loomis) St & Taylor St,15,15,9,6,40,In Service,41.868968,-87.659141
20,12/31/2019 11:55:54 PM,Sheffield Ave & Kingsbury St,15,15,12,3,20,In Service,41.910522,-87.653106
21,12/31/2019 11:55:54 PM,Aberdeen St & Jackson Blvd,23,23,18,5,22,In Service,41.877726,-87.654787
22,12/31/2019 11:55:54 PM,May St & Taylor St,15,15,11,4,27,In Service,41.869482,-87.655486
23,12/31/2019 11:55:54 PM,Orleans St & Elm St,15,15,15,0,0,In Service,41.902924,-87.637715
24,12/31/2019 11:55:54 PM,Fairbanks Ct & Grand Ave,15,15,3,12,80,In Service,41.892500,-87.620700
25,12/31/2019 11:55:54 PM,Michigan Ave & Pearson St,23,23,21,2,9,In Service,41.897660,-87.623510
26,12/31/2019 11:55:54 PM,McClurg Ct & Illinois St,31,30,17,13,43,In Service,41.890359,-87.617532
27,12/31/2019 11:55:54 PM,Larrabee St & North Ave,19,19,12,7,37,In Service,41.910210,-87.643500
28,12/31/2019 11:55:54 PM,Larrabee St & Menomonee St,15,15,9,6,40,In Service,41.914680,-87.643320
29,12/31/2019 11:55:54 PM,Noble St & Milwaukee Ave,15,15,12,3,20,In Service,41.900680,-87.662600
30,12/31/2019 11:55:54 PM,Ashland Ave & Augusta Blvd,15,15,8,7,47,In Service,41.899643,-87.667700
31,12/31/2019 11:55:54 PM,Franklin St & Chicago Ave,23,23,14,9,39,In Service,41.896747,-87.635668
32,12/31/2019 11:55:54 PM,Racine Ave & Congress Pkwy,19,19,11,8,42,In Service,41.874640,-87.657030
33,12/31/2019 11:55:54 PM,State St & Van Buren St,27,27,24,3,11,In Service,41.877181,-87.627844
34,12/31/2019 11:55:54 PM,Cannon Dr & Fullerton Ave,15,15,8,7,47,In Service,41.926756,-87.634429
35,12/31/2019 11:55:54 PM,Streeter Dr & Grand Ave,47,47,11,36,77,In Service,41.892278,-87.612043
36,12/31/2019 11:55:54 PM,Franklin St & Jackson Blvd,39,39,38,1,3,In Service,41.877708,-87.635321
37,12/31/2019 11:55:54 PM,Dearborn St & Adams St,19,19,15,4,21,In Service,41.879356,-87.629791
38,12/31/2019 11:55:54 PM,Clark St & Lake St,27,27,19,8,30,In Service,41.886021,-87.630876
39,12/31/2019 11:55:54 PM,Wabash Ave & Adams St,23,23,23,0,0,In Service,41.879472,-87.625689
40,12/31/2019 11:55:54 PM,LaSalle St & Adams St,15,15,9,6,40,In Service,41.879344,-87.631985
41,12/31/2019 11:55:54 PM,Federal St & Polk St,19,19,10,9,47,In Service,41.872078,-87.629544
42,12/31/2019 11:55:54 PM,Wabash Ave & Cermak Rd,11,11,9,2,18,In Service,41.852619,-87.626488
43,12/31/2019 11:55:54 PM,Michigan Ave & Washington St,43,43,32,11,26,In Service,41.883984,-87.624684
44,12/31/2019 11:55:54 PM,State St & Randolph St,27,27,18,9,33,In Service,41.884730,-87.627734
45,12/31/2019 11:55:54 PM,Michigan Ave & Ida B Wells Dr,15,15,14,1,7,In Service,41.876243,-87.624426
46,12/31/2019 11:55:54 PM,Wells St & Walton St,19,19,12,7,37,In Service,41.899930,-87.634430
47,12/31/2019 11:55:54 PM,State St & Kinzie St,31,31,19,12,39,In Service,41.889187,-87.627754
48,12/31/2019 11:55:54 PM,Larrabee St & Kingsbury St,43,43,42,1,2,In Service,41.897764,-87.642884
49,12/31/2019 11:55:54 PM,Dearborn St & Monroe St,39,39,35,4,10,In Service,41.881320,-87.629521
50,12/31/2019 11:55:54 PM,Clark St & Ida B Wells Dr,35,35,29,6,17,In Service,41.875933,-87.630585
51,12/31/2019 11:55:54 PM,Clark St & Randolph St,39,39,37,2,5,In Service,41.884576,-87.631890
52,12/31/2019 11:55:54 PM,Michigan Ave & Lake St,35,35,23,12,34,In Service,41.886024,-87.624117
53,12/31/2019 11:55:54 PM,Wells St & Huron St,27,27,19,8,30,In Service,41.894722,-87.634362
54,12/31/2019 11:55:54 PM,Ogden Ave & Chicago Ave,19,19,16,3,16,In Service,41.896362,-87.654061
55,12/31/2019 11:55:54 PM,Halsted St & Roosevelt Rd,23,23,22,1,4,In Service,41.867324,-87.648625
56,12/31/2019 11:55:54 PM,Desplaines St & Kinzie St,27,27,25,2,7,In Service,41.888716,-87.644448
57,12/31/2019 11:55:54 PM,Clinton St & Roosevelt Rd,15,15,13,2,13,In Service,41.867118,-87.641088
58,12/31/2019 11:55:54 PM,Marshfield Ave & Cortland St,23,23,18,5,22,In Service,41.916017,-87.668879
59,12/31/2019 11:55:54 PM,Wabash Ave & Roosevelt Rd,23,23,8,15,65,In Service,41.867227,-87.625961
60,12/31/2019 11:55:54 PM,Dayton St & North Ave,19,19,8,11,58,In Service,41.910578,-87.649422
61,12/31/2019 11:55:54 PM,Wood St & Milwaukee Ave,19,19,11,8,42,In Service,41.907655,-87.672552
62,12/31/2019 11:55:54 PM,McCormick Place,27,27,17,10,37,In Service,41.851375,-87.618835
66,12/31/2019 11:55:54 PM,Clinton St & Lake St,23,23,14,9,39,In Service,41.885637,-87.641823
67,12/31/2019 11:55:54 PM,Sheffield Ave & Fullerton Ave,27,27,17,10,37,In Service,41.925602,-87.653708
68,12/31/2019 11:55:54 PM,Clinton St & Tilden St,23,23,22,1,4,In Service,41.875885,-87.640795
69,12/31/2019 11:55:54 PM,Damen Ave & Pierce Ave,23,23,15,8,35,In Service,41.909396,-87.677692
71,12/31/2019 11:55:54 PM,Morgan St & Lake St,23,23,15,8,35,In Service,41.885483,-87.652305
72,12/31/2019 11:55:54 PM,Wabash Ave & 16th St,39,39,21,18,46,In Service,41.860384,-87.625813
73,12/31/2019 11:55:54 PM,Jefferson St & Monroe St,19,19,13,6,32,In Service,41.880422,-87.642746
74,12/31/2019 11:55:54 PM,Kingsbury St & Erie St,23,23,14,9,39,In Service,41.893808,-87.641697
75,12/31/2019 11:55:54 PM,Canal St & Jackson Blvd,47,47,12,35,74,In Service,41.877245,-87.639366
76,12/31/2019 11:55:54 PM,Lake Shore Dr & Monroe St,39,39,30,9,23,In Service,41.880958,-87.616743
77,12/31/2019 11:55:54 PM,Clinton St & Madison St,31,31,21,10,32,In Service,41.882242,-87.641066
80,12/31/2019 11:55:54 PM,Aberdeen St & Monroe St,19,19,15,4,21,In Service,41.880419,-87.655519
81,12/31/2019 11:55:54 PM,Daley Center Plaza,39,39,30,9,23,In Service,41.884241,-87.629634
84,12/31/2019 11:55:54 PM,Milwaukee Ave & Grand Ave,19,19,5,14,74,In Service,41.891578,-87.648384
85,12/31/2019 11:55:54 PM,Michigan Ave & Oak St,23,23,14,9,39,In Service,41.900960,-87.623777
86,12/31/2019 11:55:54 PM,Eckhart Park,19,19,11,8,42,In Service,41.896373,-87.660984
87,12/31/2019 11:55:54 PM,Racine Ave & Fullerton Ave,19,19,7,12,63,In Service,41.925563,-87.658404
88,12/31/2019 11:55:54 PM,Racine Ave & Randolph St,19,19,11,8,42,In Service,41.884069,-87.656853
89,12/31/2019 11:55:54 PM,Financial Pl & Ida B Wells Dr,31,31,24,7,23,In Service,41.875024,-87.633094
90,12/31/2019 11:55:54 PM,Millennium Park,47,47,24,23,49,In Service,41.881032,-87.624084
91,12/31/2019 11:55:54 PM,Clinton St & Washington Blvd,31,31,19,12,39,In Service,41.883380,-87.641170
92,12/31/2019 11:55:54 PM,Carpenter St & Huron St,19,19,11,8,42,In Service,41.894556,-87.653449
93,12/31/2019 11:55:54 PM,Sheffield Ave & Willow St,15,15,13,2,13,In Service,41.913688,-87.652855
94,12/31/2019 11:55:54 PM,Clark St & Armitage Ave,31,31,19,12,39,In Service,41.918306,-87.636282
95,12/31/2019 11:55:54 PM,Stony Island Ave & 64th St,11,11,9,2,18,In Service,41.778881,-87.586647
96,12/31/2019 11:55:54 PM,Desplaines St & Randolph St,23,23,16,7,30,In Service,41.884616,-87.644571
97,12/31/2019 11:55:54 PM,Field Museum,55,55,39,16,29,In Service,41.865312,-87.617867
98,12/31/2019 11:55:54 PM,LaSalle St & Washington St,15,15,14,1,7,In Service,41.882664,-87.632530
99,12/31/2019 11:55:54 PM,Lake Shore Dr & Ohio St,19,19,11,8,42,In Service,41.892570,-87.614492
100,12/31/2019 11:55:54 PM,Orleans St & Merchandise Mart Plaza,35,35,24,11,31,In Service,41.888243,-87.636390
101,12/31/2019 11:55:54 PM,63rd St Beach,15,15,8,7,47,In Service,41.781016,-87.576120
102,12/31/2019 11:55:54 PM,Stony Island Ave & 67th St,11,11,8,3,27,In Service,41.773458,-87.585340
103,12/31/2019 11:55:54 PM,Clinton St & Polk St,15,15,11,4,27,In Service,41.871467,-87.640949
106,12/31/2019 11:55:54 PM,State St & Pearson St,27,27,21,6,22,In Service,41.897448,-87.628722
107,12/31/2019 11:55:54 PM,Desplaines St & Jackson Blvd,27,27,25,2,7,In Service,41.878287,-87.643909
108,12/31/2019 11:55:54 PM,Halsted St & Polk St,19,18,8,10,56,In Service,41.871840,-87.646640
109,12/31/2019 11:55:54 PM,900 W Harrison St,19,19,14,5,26,In Service,41.874754,-87.649807
110,12/31/2019 11:55:54 PM,Dearborn St & Erie St,27,27,16,11,41,In Service,41.893992,-87.629318
111,12/31/2019 11:55:54 PM,Sedgwick St & Huron St,27,27,25,2,7,In Service,41.894666,-87.638437
112,12/31/2019 11:55:54 PM,Green St & Randolph St,15,15,12,3,20,In Service,41.883668,-87.648670
113,12/31/2019 11:55:54 PM,Bissell St & Armitage Ave,15,15,13,2,13,In Service,41.918440,-87.652220
114,12/31/2019 11:55:54 PM,Sheffield Ave & Waveland Ave,27,27,13,14,52,In Service,41.949399,-87.654529
115,12/31/2019 11:55:54 PM,Sheffield Ave & Wellington Ave,23,23,8,15,65,In Service,41.936266,-87.652662
116,12/31/2019 11:55:54 PM,Western Ave & Winnebago Ave,15,15,9,6,40,In Service,41.915520,-87.687022
117,12/31/2019 11:55:54 PM,Wilton Ave & Belmont Ave,27,27,18,9,33,In Service,41.940180,-87.653040
118,12/31/2019 11:55:54 PM,Sedgwick St & North Ave,19,19,10,9,47,In Service,41.911386,-87.638677
119,12/31/2019 11:55:54 PM,Ashland Ave & Lake St,19,19,13,6,32,In Service,41.885920,-87.667170
120,12/31/2019 11:55:54 PM,Wentworth Ave & Cermak Rd (Temp),19,18,10,8,44,In Service,41.853005,-87.630578
121,12/31/2019 11:55:54 PM,Blackstone Ave & Hyde Park Blvd,19,19,5,14,74,In Service,41.802562,-87.590368
122,12/31/2019 11:55:54 PM,Ogden Ave & Congress Pkwy,15,15,14,1,7,In Service,41.875010,-87.673280
123,12/31/2019 11:55:54 PM,California Ave & Milwaukee Ave,15,15,6,9,60,In Service,41.922695,-87.697153
124,12/31/2019 11:55:54 PM,Damen Ave & Cullerton St,15,15,6,9,60,In Service,41.855048,-87.675726
125,12/31/2019 11:55:54 PM,Rush St & Hubbard St,23,23,17,6,26,In Service,41.890173,-87.626185
126,12/31/2019 11:55:54 PM,Clark St & North Ave,15,15,7,8,53,In Service,41.911974,-87.631942
127,12/31/2019 11:55:54 PM,Lincoln Ave & Fullerton Ave,15,15,8,7,47,In Service,41.925905,-87.649260
128,12/31/2019 11:55:54 PM,Damen Ave & Chicago Ave,19,19,4,15,79,In Service,41.895769,-87.677220
129,12/31/2019 11:55:54 PM,Blue Island Ave & 18th St,15,15,3,12,80,In Service,41.857556,-87.661535
130,12/31/2019 11:55:54 PM,Damen Ave & Division St,19,19,8,11,58,In Service,41.903266,-87.678435
131,12/31/2019 11:55:54 PM,Lincoln Ave & Belmont Ave,15,15,10,5,33,In Service,41.939365,-87.668385
132,12/31/2019 11:55:54 PM,Wentworth Ave & 24th St (Temp),15,15,7,8,53,In Service,41.850084,-87.632141
133,12/31/2019 11:55:54 PM,Kingsbury St & Kinzie St,31,31,18,13,42,In Service,41.889177,-87.638506
134,12/31/2019 11:55:54 PM,Peoria St & Jackson Blvd,23,23,22,1,4,In Service,41.877642,-87.649618
135,12/31/2019 11:55:54 PM,Halsted St & 21st St,11,11,9,2,18,In Service,41.853780,-87.646650
136,12/31/2019 11:55:54 PM,Racine Ave & 13th St,15,15,11,4,27,In Service,41.865054,-87.656959
137,12/31/2019 11:55:54 PM,Morgan Ave & 14th Pl,15,15,11,4,27,In Service,41.862378,-87.651062
138,12/31/2019 11:55:54 PM,Clybourn Ave & Division St,15,15,8,7,47,In Service,41.904613,-87.640552
140,12/31/2019 11:55:54 PM,Dearborn Pkwy & Delaware Pl,19,19,11,8,42,In Service,41.898969,-87.629912
141,12/31/2019 11:55:54 PM,Clark St & Lincoln Ave,23,23,20,3,13,In Service,41.915689,-87.634600
142,12/31/2019 11:55:54 PM,McClurg Ct & Erie St,31,31,28,3,10,In Service,41.894503,-87.617854
143,12/31/2019 11:55:54 PM,Sedgwick St & Webster Ave,15,15,14,1,7,In Service,41.922167,-87.638888
144,12/31/2019 11:55:54 PM,Larrabee St & Webster Ave,19,19,11,8,42,In Service,41.921822,-87.644140
145,12/31/2019 11:55:54 PM,Mies van der Rohe Way & Chestnut St,19,19,12,7,37,In Service,41.898587,-87.621915
146,12/31/2019 11:55:54 PM,Loomis St & Jackson Blvd,19,19,7,12,63,In Service,41.877945,-87.662007
147,12/31/2019 11:55:54 PM,Indiana Ave & 26th St,15,15,14,1,7,In Service,41.845687,-87.622481
148,12/31/2019 11:55:54 PM,State St & 33rd St,15,15,13,2,13,In Service,41.834734,-87.625813
149,12/31/2019 11:55:54 PM,Calumet Ave & 33rd St,11,11,10,1,9,In Service,41.834900,-87.617930
150,12/31/2019 11:55:54 PM,Fort Dearborn Dr & 31st St,27,27,24,3,11,In Service,41.838556,-87.608218
152,12/31/2019 11:55:54 PM,Lincoln Ave & Diversey Pkwy,15,15,11,4,27,In Service,41.932225,-87.658617
153,12/31/2019 11:55:54 PM,Southport Ave & Wellington Ave,19,19,7,12,63,In Service,41.935733,-87.663576
154,12/31/2019 11:55:54 PM,Southport Ave & Belmont Ave,15,15,9,6,40,In Service,41.939490,-87.663780
156,12/31/2019 11:55:54 PM,Clark St & Wellington Ave,15,14,10,4,29,In Service,41.936497,-87.647539
157,12/31/2019 11:55:54 PM,Lake Shore Dr & Wellington Ave,15,15,11,4,27,In Service,41.936688,-87.636829
158,12/31/2019 11:55:54 PM,Milwaukee Ave & Wabansia Ave,15,15,9,6,40,In Service,41.912616,-87.681391
159,12/31/2019 11:55:54 PM,Claremont Ave & Hirsch St,11,11,11,0,0,In Service,41.907781,-87.685854
160,12/31/2019 11:55:54 PM,Campbell Ave & North Ave,15,15,13,2,13,In Service,41.910535,-87.689556
161,12/31/2019 11:55:54 PM,Rush St & Superior St,23,23,8,15,65,In Service,41.895765,-87.625908
162,12/31/2019 11:55:54 PM,Damen Ave & Wellington Ave,15,15,11,4,27,In Service,41.935880,-87.678420
163,12/31/2019 11:55:54 PM,Damen Ave & Clybourn Ave,15,15,6,9,60,In Service,41.931931,-87.677856
164,12/31/2019 11:55:54 PM,Franklin St & Lake St,27,27,18,9,33,In Service,41.885837,-87.635500
165,12/31/2019 11:55:54 PM,Clark St & Grace St,23,23,17,6,26,In Service,41.950780,-87.659172
166,12/31/2019 11:55:54 PM,Ashland Ave & Wrightwood Ave,15,14,11,3,21,In Service,41.928830,-87.668507
167,12/31/2019 11:55:54 PM,Damen Ave & Coulter St,7,7,2,5,71,In Service,41.849200,-87.675640
168,12/31/2019 11:55:54 PM,Michigan Ave & 14th St,19,19,4,15,79,In Service,41.864059,-87.623727
169,12/31/2019 11:55:54 PM,Canal St & Harrison St,15,15,10,5,33,In Service,41.874255,-87.639573
170,12/31/2019 11:55:54 PM,Clinton St & 18th St,15,15,7,8,53,In Service,41.857950,-87.640826
171,12/31/2019 11:55:54 PM,May St & Cullerton St,11,11,7,4,36,In Service,41.855136,-87.654127
172,12/31/2019 11:55:54 PM,Rush St & Cedar St,11,11,1,10,91,In Service,41.902309,-87.627691
173,12/31/2019 11:55:54 PM,Mies van der Rohe Way & Chicago Ave,15,15,15,0,0,In Service,41.896910,-87.621743
174,12/31/2019 11:55:54 PM,Canal St & Madison St,35,35,23,12,34,In Service,41.882091,-87.639833
175,12/31/2019 11:55:54 PM,Wells St & Polk St,19,19,9,10,53,In Service,41.872596,-87.633502
176,12/31/2019 11:55:54 PM,Clark St & Elm St,39,39,25,14,36,In Service,41.902973,-87.631280
177,12/31/2019 11:55:54 PM,Theater on the Lake,31,31,17,14,45,In Service,41.926277,-87.630834
178,12/31/2019 11:55:54 PM,State St & 19th St,15,15,14,1,7,In Service,41.856594,-87.627542
179,12/31/2019 11:55:54 PM,MLK Jr Dr & Pershing Rd,15,15,8,7,47,In Service,41.824600,-87.616780
180,12/31/2019 11:55:54 PM,Ritchie Ct & Banks St,15,14,8,6,43,In Service,41.906866,-87.626217
181,12/31/2019 11:55:54 PM,LaSalle St & Illinois St,31,31,17,14,45,In Service,41.890762,-87.631697
182,12/31/2019 11:55:54 PM,Wells St & Elm St,23,23,7,16,70,In Service,41.903222,-87.634324
183,12/31/2019 11:55:54 PM,Damen Ave & Thomas St (Augusta Blvd),23,23,14,9,39,In Service,41.901315,-87.677409
184,12/31/2019 11:55:54 PM,State St & 35th St,19,19,12,7,37,In Service,41.830900,-87.628030
185,12/31/2019 11:55:54 PM,Stave St & Armitage Ave,11,11,4,7,64,In Service,41.917741,-87.691392
186,12/31/2019 11:55:54 PM,Ogden Ave & Race Ave,15,15,8,7,47,In Service,41.891795,-87.658751
188,12/31/2019 11:55:54 PM,Greenview Ave & Fullerton Ave,15,14,3,11,79,In Service,41.925330,-87.665800
190,12/31/2019 11:55:54 PM,Southport Ave & Wrightwood Ave,15,15,4,11,73,In Service,41.928773,-87.663913
191,12/31/2019 11:55:54 PM,Canal St & Monroe St,27,27,15,12,44,In Service,41.881690,-87.639530
192,12/31/2019 11:55:54 PM,Canal St & Adams St,47,47,26,21,45,In Service,41.879255,-87.639904
193,12/31/2019 11:55:54 PM,State St & 29th St,11,10,6,4,40,In Service,41.841707,-87.626938
194,12/31/2019 11:55:54 PM,Wabash Ave & Wacker Pl,19,19,11,8,42,In Service,41.886875,-87.626030
195,12/31/2019 11:55:54 PM,Columbus Dr & Randolph St,55,55,45,10,18,In Service,41.884728,-87.619521
196,12/31/2019 11:55:54 PM,Cityfront Plaza Dr & Pioneer Ct,31,31,15,16,52,In Service,41.890573,-87.622072
197,12/31/2019 11:55:54 PM,Michigan Ave & Madison St,19,19,13,6,32,In Service,41.882134,-87.625125
198,12/31/2019 11:55:54 PM,Green St & Madison St,27,27,16,11,41,In Service,41.881892,-87.648789
199,12/31/2019 11:55:54 PM,Wabash Ave & Grand Ave,31,31,20,11,35,In Service,41.891466,-87.626761
200,12/31/2019 11:55:54 PM,MLK Jr Dr & 47th St,11,11,9,2,18,In Service,41.809851,-87.616279
201,12/31/2019 11:55:54 PM,Indiana Ave & 40th St,11,11,2,9,82,In Service,41.821680,-87.621600
202,12/31/2019 11:55:54 PM,Halsted St & 18th St,15,15,10,5,33,In Service,41.857499,-87.646277
203,12/31/2019 11:55:54 PM,Western Ave & 21st St,15,15,3,12,80,In Service,41.854109,-87.685838
204,12/31/2019 11:55:54 PM,Prairie Ave & Garfield Blvd,11,11,7,4,36,In Service,41.794853,-87.618691
205,12/31/2019 11:55:54 PM,Paulina St & 18th St,15,15,2,13,87,In Service,41.857901,-87.668745
206,12/31/2019 11:55:54 PM,Halsted St & Archer Ave,15,15,4,11,73,In Service,41.847203,-87.646795
207,12/31/2019 11:55:54 PM,Emerald Ave & 28th St,15,15,4,11,73,In Service,41.843580,-87.645368
208,12/31/2019 11:55:54 PM,Ashland Ave & 21st St,15,15,10,5,33,In Service,41.853810,-87.665897
209,12/31/2019 11:55:54 PM,Normal Ave & Archer Ave,11,11,5,6,55,In Service,41.849527,-87.640591
210,12/31/2019 11:55:54 PM,Ashland Ave & Division St,27,27,16,11,41,In Service,41.903450,-87.667747
211,12/31/2019 11:55:54 PM,St. Clair St & Erie St,19,19,14,5,26,In Service,41.894448,-87.622663
212,12/31/2019 11:55:54 PM,Wells St & Hubbard St,31,31,21,10,32,In Service,41.889906,-87.634266
213,12/31/2019 11:55:54 PM,Leavitt St & North Ave,15,15,6,9,60,In Service,41.910153,-87.682290
214,12/31/2019 11:55:54 PM,Damen Ave & Grand Ave,23,23,6,17,74,In Service,41.891220,-87.676860
215,12/31/2019 11:55:54 PM,Damen Ave & Madison St,15,15,9,6,40,In Service,41.881370,-87.674930
216,12/31/2019 11:55:54 PM,California Ave & Division St,15,15,8,7,47,In Service,41.903029,-87.697474
217,12/31/2019 11:55:54 PM,Elizabeth (May) St & Fulton St,15,15,7,8,53,In Service,41.886616,-87.658040
218,12/31/2019 11:55:54 PM,Wells St & 19th St,11,11,2,9,82,In Service,41.856802,-87.633879
219,12/31/2019 11:55:54 PM,Damen Ave & Cortland St,19,19,7,12,63,In Service,41.915983,-87.677335
220,12/31/2019 11:55:54 PM,Clark St & Drummond Pl,23,23,14,9,39,In Service,41.931248,-87.644336
222,12/31/2019 11:55:54 PM,Milwaukee Ave & Rockwell St,19,19,10,9,47,In Service,41.920195,-87.693033
223,12/31/2019 11:55:54 PM,Clifton Ave & Armitage Ave,15,15,11,4,27,In Service,41.918216,-87.656936
224,12/31/2019 11:55:54 PM,Halsted St & Willow St,19,19,15,4,21,In Service,41.913865,-87.648755
225,12/31/2019 11:55:54 PM,Halsted St & Dickens Ave,23,23,19,4,17,In Service,41.919936,-87.648830
226,12/31/2019 11:55:54 PM,Racine Ave & Belmont Ave,15,15,10,5,33,In Service,41.939743,-87.658865
227,12/31/2019 11:55:54 PM,Southport Ave & Waveland Ave,23,23,13,10,43,In Service,41.948150,-87.663940
228,12/31/2019 11:55:54 PM,Damen Ave & Melrose Ave,15,15,4,11,73,In Service,41.940600,-87.678500
229,12/31/2019 11:55:54 PM,Southport Ave & Roscoe St,19,19,10,9,47,In Service,41.943739,-87.664020
230,12/31/2019 11:55:54 PM,Lincoln Ave & Roscoe St,19,19,5,14,74,In Service,41.943340,-87.670970
231,12/31/2019 11:55:54 PM,Sheridan Rd & Montrose Ave,23,23,18,5,22,In Service,41.961670,-87.654640
232,12/31/2019 11:55:54 PM,Pine Grove Ave & Waveland Ave,23,23,16,7,30,In Service,41.949275,-87.646303
233,12/31/2019 11:55:54 PM,Sangamon St & Washington Blvd,15,15,13,2,13,In Service,41.883165,-87.651100
234,12/31/2019 11:55:54 PM,Clark St & Montrose Ave,19,19,13,6,32,In Service,41.961588,-87.666036
236,12/31/2019 11:55:54 PM,Sedgwick St & Schiller St,15,15,10,5,33,In Service,41.907626,-87.638566
237,12/31/2019 11:55:54 PM,MLK Jr Dr & 29th St,19,19,12,7,37,In Service,41.842052,-87.617000
238,12/31/2019 11:55:54 PM,Wolcott (Ravenswood) Ave & Montrose Ave,15,15,8,7,47,In Service,41.961406,-87.676169
239,12/31/2019 11:55:54 PM,Western Ave & Leland Ave,15,15,13,2,13,In Service,41.965816,-87.686498
240,12/31/2019 11:55:54 PM,Sheridan Rd & Irving Park Rd,27,27,21,6,22,In Service,41.954245,-87.654406
241,12/31/2019 11:55:54 PM,Morgan St & Polk St,19,19,11,8,42,In Service,41.871737,-87.651030
242,12/31/2019 11:55:54 PM,Damen Ave & Leland Ave,15,15,15,0,0,In Service,41.967094,-87.679028
243,12/31/2019 11:55:54 PM,Lincoln Ave & Sunnyside Ave,15,15,7,8,53,In Service,41.963004,-87.684781
244,12/31/2019 11:55:54 PM,Ravenswood Ave & Irving Park Rd,19,19,9,10,53,In Service,41.954690,-87.673930
245,12/31/2019 11:55:54 PM,Clarendon Ave & Junior Ter,23,23,16,7,30,In Service,41.961004,-87.649603
246,12/31/2019 11:55:54 PM,Ashland Ave & Belle Plaine Ave,11,11,9,2,18,In Service,41.956057,-87.668835
247,12/31/2019 11:55:54 PM,Shore Dr & 55th St,19,19,17,2,11,In Service,41.795212,-87.580715
248,12/31/2019 11:55:54 PM,Woodlawn Ave & 55th St,19,19,13,6,32,In Service,41.795264,-87.596471
249,12/31/2019 11:55:54 PM,Montrose Harbor,31,31,28,3,10,In Service,41.963982,-87.638181
250,12/31/2019 11:55:54 PM,Ashland Ave & Wellington Ave,19,19,14,5,26,In Service,41.936083,-87.669807
251,12/31/2019 11:55:54 PM,Clarendon Ave & Leland Ave,15,15,13,2,13,In Service,41.967968,-87.650001
252,12/31/2019 11:55:54 PM,Greenwood Ave & 47th St,15,15,13,2,13,In Service,41.809835,-87.599383
253,12/31/2019 11:55:54 PM,Winthrop Ave & Lawrence Ave,15,15,10,5,33,In Service,41.968812,-87.657659
254,12/31/2019 11:55:54 PM,Pine Grove Ave & Irving Park Rd,15,14,9,5,36,In Service,41.954383,-87.648043
255,12/31/2019 11:55:54 PM,Indiana Ave & Roosevelt Rd,39,39,35,4,10,In Service,41.867888,-87.623041
256,12/31/2019 11:55:54 PM,Broadway & Sheridan Rd,15,15,8,7,47,In Service,41.952833,-87.649993
257,12/31/2019 11:55:54 PM,Lincoln Ave & Waveland Ave,15,15,10,5,33,In Service,41.948797,-87.675278
258,12/31/2019 11:55:54 PM,Logan Blvd & Elston Ave,27,27,9,18,67,In Service,41.929465,-87.684158
259,12/31/2019 11:55:54 PM,California Ave & Francis Pl (Temp),15,15,10,5,33,In Service,41.918491,-87.697423
260,12/31/2019 11:55:54 PM,Kedzie Ave & Milwaukee Ave,35,35,18,17,49,In Service,41.929567,-87.707857
261,12/31/2019 11:55:54 PM,Hermitage Ave & Polk St,15,15,12,3,20,In Service,41.871514,-87.669886
262,12/31/2019 11:55:54 PM,Halsted St & 37th St,11,11,6,5,45,In Service,41.827059,-87.645720
263,12/31/2019 11:55:54 PM,Rhodes Ave & 32nd St,11,11,6,5,45,In Service,41.836208,-87.613533
264,12/31/2019 11:55:54 PM,Stetson Ave & South Water St,19,19,12,7,37,In Service,41.886835,-87.622320
265,12/31/2019 11:55:54 PM,Cottage Grove Ave & Oakwood Blvd,15,15,5,10,67,In Service,41.822985,-87.607100
267,12/31/2019 11:55:54 PM,Lake Park Ave & 47th St,15,15,9,6,40,In Service,41.809443,-87.591875
268,12/31/2019 11:55:54 PM,Lake Shore Dr & North Blvd,39,39,34,5,13,In Service,41.911722,-87.626804
270,12/31/2019 11:55:54 PM,Stony Island Ave & 75th St,11,11,9,2,18,In Service,41.758670,-87.586883
271,12/31/2019 11:55:54 PM,Cottage Grove Ave & 43rd St,11,11,8,3,27,In Service,41.816499,-87.606582
272,12/31/2019 11:55:54 PM,Indiana Ave & 31st St,11,11,6,5,45,In Service,41.838842,-87.621857
273,12/31/2019 11:55:54 PM,Michigan Ave & 18th St,23,23,13,10,43,In Service,41.857813,-87.624550
274,12/31/2019 11:55:54 PM,Racine Ave & 15th St,15,15,12,3,20,In Service,41.861267,-87.656625
275,12/31/2019 11:55:54 PM,Ashland Ave & 13th St,15,15,8,7,47,In Service,41.865234,-87.666507
276,12/31/2019 11:55:54 PM,California Ave & North Ave,11,11,5,6,55,In Service,41.910440,-87.697200
277,12/31/2019 11:55:54 PM,Ashland Ave & Grand Ave,15,15,12,3,20,In Service,41.891072,-87.666611
278,12/31/2019 11:55:54 PM,Wallace St & 35th St,15,15,11,4,27,In Service,41.830629,-87.641290
279,12/31/2019 11:55:54 PM,Halsted St & 35th St,15,15,14,1,7,In Service,41.830661,-87.647172
280,12/31/2019 11:55:54 PM,Morgan St & 31st St,11,11,9,2,18,In Service,41.837800,-87.651140
281,12/31/2019 11:55:54 PM,Western Ave & 24th St,7,7,4,3,43,In Service,41.848470,-87.685109
282,12/31/2019 11:55:54 PM,Halsted St & Maxwell St,15,15,11,4,27,In Service,41.864883,-87.647071
283,12/31/2019 11:55:54 PM,LaSalle St & Jackson Blvd,35,35,29,6,17,In Service,41.878166,-87.631929
284,12/31/2019 11:55:54 PM,Michigan Ave & Jackson Blvd,23,23,15,8,35,In Service,41.877850,-87.624080
285,12/31/2019 11:55:54 PM,Wood St & Hubbard St,19,19,13,6,32,In Service,41.889899,-87.671473
286,12/31/2019 11:55:54 PM,Franklin St & Adams St (Temp),15,15,11,4,27,In Service,41.879434,-87.635504
287,12/31/2019 11:55:54 PM,Franklin St & Monroe St,31,31,29,2,6,In Service,41.880317,-87.635185
288,12/31/2019 11:55:54 PM,Larrabee St & Armitage Ave,15,15,8,7,47,In Service,41.918084,-87.643749
289,12/31/2019 11:55:54 PM,Wells St & Concord Ln,19,19,14,5,26,In Service,41.912133,-87.634656
290,12/31/2019 11:55:54 PM,Kedzie Ave & Palmer Ct,15,15,4,11,73,In Service,41.921525,-87.707322
291,12/31/2019 11:55:54 PM,Wells St & Evergreen Ave,19,19,12,7,37,In Service,41.906724,-87.634830
292,12/31/2019 11:55:54 PM,Southport Ave & Clark St,11,11,7,4,36,In Service,41.957081,-87.664199
293,12/31/2019 11:55:54 PM,Broadway & Wilson Ave,23,23,7,16,70,In Service,41.965221,-87.658139
294,12/31/2019 11:55:54 PM,Broadway & Berwyn Ave,15,15,11,4,27,In Service,41.978353,-87.659753
295,12/31/2019 11:55:54 PM,Broadway & Argyle St,19,19,2,17,89,In Service,41.973815,-87.659660
296,12/31/2019 11:55:54 PM,Broadway & Belmont Ave,19,19,7,12,63,In Service,41.940106,-87.645451
297,12/31/2019 11:55:54 PM,Paulina St & Montrose Ave,15,15,8,7,47,In Service,41.961507,-87.671387
298,12/31/2019 11:55:54 PM,Lincoln Ave & Belle Plaine Ave,15,15,12,3,20,In Service,41.956020,-87.680293
299,12/31/2019 11:55:54 PM,Halsted St & Roscoe St,15,15,9,6,40,In Service,41.943670,-87.648950
300,12/31/2019 11:55:54 PM,Broadway & Barry Ave,19,19,9,10,53,In Service,41.937725,-87.644095
301,12/31/2019 11:55:54 PM,Clark St & Schiller St,19,19,4,15,79,In Service,41.907993,-87.631501
302,12/31/2019 11:55:54 PM,Sheffield Ave & Wrightwood Ave,31,31,28,3,10,In Service,41.928712,-87.653833
303,12/31/2019 11:55:54 PM,Broadway & Cornelia Ave,23,23,16,7,30,In Service,41.945529,-87.646439
304,12/31/2019 11:55:54 PM,Broadway & Waveland Ave,15,15,10,5,33,In Service,41.949074,-87.648636
305,12/31/2019 11:55:54 PM,Western Ave & Division St,23,23,11,12,52,In Service,41.902893,-87.687275
306,12/31/2019 11:55:54 PM,Sheridan Rd & Buena Ave,19,19,3,16,84,In Service,41.958494,-87.654966
307,12/31/2019 11:55:54 PM,Southport Ave & Clybourn Ave,15,15,12,3,20,In Service,41.920771,-87.663712
308,12/31/2019 11:55:54 PM,Seeley Ave & Roscoe St,11,11,7,4,36,In Service,41.943403,-87.679618
309,12/31/2019 11:55:54 PM,Leavitt St & Armitage Ave,11,11,8,3,27,In Service,41.917805,-87.682437
310,12/31/2019 11:55:54 PM,Damen Ave & Charleston St,11,11,5,6,55,In Service,41.920082,-87.677855
311,12/31/2019 11:55:54 PM,Leavitt St & Lawrence Ave,19,19,8,11,58,In Service,41.968885,-87.684001
312,12/31/2019 11:55:54 PM,Clarendon Ave & Gordon Ter,15,15,9,6,40,In Service,41.957879,-87.649519
313,12/31/2019 11:55:54 PM,Lakeview Ave & Fullerton Pkwy,19,19,9,10,53,In Service,41.925858,-87.638973
314,12/31/2019 11:55:54 PM,Ravenswood Ave & Berteau Ave,15,15,13,2,13,In Service,41.957921,-87.673567
315,12/31/2019 11:55:54 PM,Elston Ave & Wabansia Ave,23,23,11,12,52,In Service,41.912919,-87.664169
316,12/31/2019 11:55:54 PM,Damen Ave & Sunnyside Ave,19,19,14,5,26,In Service,41.963250,-87.679258
317,12/31/2019 11:55:54 PM,Wood St & Taylor St,23,23,23,0,0,In Service,41.869154,-87.671045
318,12/31/2019 11:55:54 PM,Southport Ave & Irving Park Rd,15,15,3,12,80,In Service,41.954177,-87.664358
319,12/31/2019 11:55:54 PM,Greenview Ave & Diversey Pkwy,15,15,9,6,40,In Service,41.932590,-87.665936
320,12/31/2019 11:55:54 PM,Loomis St & Lexington St,19,19,9,10,53,In Service,41.872187,-87.661501
321,12/31/2019 11:55:54 PM,Wabash Ave & 9th St,19,19,10,9,47,In Service,41.870769,-87.625734
322,12/31/2019 11:55:54 PM,Kimbark Ave & 53rd St,23,23,12,11,48,In Service,41.799568,-87.594747
323,12/31/2019 11:55:54 PM,Sheridan Rd & Lawrence Ave,19,19,16,3,16,In Service,41.969517,-87.654691
324,12/31/2019 11:55:54 PM,Stockton Dr & Wrightwood Ave,15,15,4,11,73,In Service,41.931320,-87.638742
325,12/31/2019 11:55:54 PM,Clark St & Winnemac Ave,19,19,12,7,37,In Service,41.973340,-87.667780
326,12/31/2019 11:55:54 PM,Clark St & Leland Ave,19,19,13,6,32,In Service,41.967096,-87.667429
327,12/31/2019 11:55:54 PM,Sheffield Ave & Webster Ave,19,19,3,16,84,In Service,41.921540,-87.653818
328,12/31/2019 11:55:54 PM,Ellis Ave & 58th St,19,19,12,7,37,In Service,41.788746,-87.601334
329,12/31/2019 11:55:54 PM,Lake Shore Dr & Diversey Pkwy,23,23,20,3,13,In Service,41.932588,-87.636427
330,12/31/2019 11:55:54 PM,Lincoln Ave & Addison St,19,19,12,7,37,In Service,41.946176,-87.673308
331,12/31/2019 11:55:54 PM,Halsted St & Clybourn Ave,27,27,18,9,33,In Service,41.909668,-87.648128
332,12/31/2019 11:55:54 PM,Burling St (Halsted) & Diversey Pkwy (Temp),19,19,14,5,26,In Service,41.933140,-87.647760
333,12/31/2019 11:55:54 PM,Ashland Ave & Blackhawk St,15,15,5,10,67,In Service,41.907066,-87.667252
334,12/31/2019 11:55:54 PM,Lake Shore Dr & Belmont Ave,19,19,13,6,32,In Service,41.940775,-87.639192
335,12/31/2019 11:55:54 PM,Calumet Ave & 35th St,15,15,12,3,20,In Service,41.831379,-87.618034
336,12/31/2019 11:55:54 PM,Cottage Grove Ave & 47th St,15,15,12,3,20,In Service,41.809855,-87.606755
337,12/31/2019 11:55:54 PM,Clark St & Chicago Ave,19,19,13,6,32,In Service,41.896750,-87.630890
338,12/31/2019 11:55:54 PM,Calumet Ave & 18th St,15,15,9,6,40,In Service,41.857611,-87.619407
339,12/31/2019 11:55:54 PM,Emerald Ave & 31st St,11,11,6,5,45,In Service,41.838198,-87.645143
340,12/31/2019 11:55:54 PM,Clark St & Wrightwood Ave,15,15,5,10,67,In Service,41.929546,-87.643118
341,12/31/2019 11:55:54 PM,Adler Planetarium,39,39,30,9,23,In Service,41.866095,-87.607267
342,12/31/2019 11:55:54 PM,Wolcott Ave & Polk St,23,23,19,4,17,In Service,41.871262,-87.673688
343,12/31/2019 11:55:54 PM,Racine Ave & Wrightwood Ave,15,15,7,8,53,In Service,41.928887,-87.658971
344,12/31/2019 11:55:54 PM,Ravenswood Ave & Lawrence Ave,47,47,47,0,0,In Service,41.969090,-87.674237
345,12/31/2019 11:55:54 PM,Lake Park Ave & 56th St,19,19,8,11,58,In Service,41.793242,-87.587782
346,12/31/2019 11:55:54 PM,Ada St & Washington Blvd,15,15,10,5,33,In Service,41.882830,-87.661206
347,12/31/2019 11:55:54 PM,Ashland Ave & Grace St,15,15,3,12,80,In Service,41.950687,-87.668700
348,12/31/2019 11:55:54 PM,California Ave & 21st St,15,15,10,5,33,In Service,41.853804,-87.695742
349,12/31/2019 11:55:54 PM,Halsted St & Wrightwood Ave,15,15,8,7,47,In Service,41.929143,-87.649077
350,12/31/2019 11:55:54 PM,Ashland Ave & Chicago Ave,15,14,7,7,50,In Service,41.895966,-87.667747
351,12/31/2019 11:55:54 PM,Cottage Grove Ave & 51st St,15,15,12,3,20,In Service,41.803038,-87.606615
352,12/31/2019 11:55:54 PM,Jeffery Blvd & 67th St,11,11,9,2,18,In Service,41.773518,-87.577143
353,12/31/2019 11:55:54 PM,Clark St & Touhy Ave,15,15,11,4,27,In Service,42.012560,-87.674367
354,12/31/2019 11:55:54 PM,Sheridan Rd & Greenleaf Ave,15,15,14,1,7,In Service,42.010587,-87.662412
355,12/31/2019 11:55:54 PM,South Shore Dr & 67th St,15,15,14,1,7,In Service,41.773643,-87.567514
356,12/31/2019 11:55:54 PM,Stony Island Ave & 71st St,11,11,5,6,55,In Service,41.766493,-87.586461
359,12/31/2019 11:55:54 PM,Larrabee St & Division St,23,23,11,12,52,In Service,41.903486,-87.643353
364,12/31/2019 11:55:54 PM,Larrabee St & Oak St,19,19,14,5,26,In Service,41.900219,-87.642985
365,12/31/2019 11:55:54 PM,Halsted St & North Branch St,15,15,11,4,27,In Service,41.899368,-87.648480
366,12/31/2019 11:55:54 PM,Loomis St & Archer Ave,11,11,9,2,18,In Service,41.841633,-87.657435
367,12/31/2019 11:55:54 PM,Racine Ave & 35th St,15,15,8,7,47,In Service,41.830696,-87.655976
368,12/31/2019 11:55:54 PM,Ashland Ave & Archer Ave,15,15,7,8,53,In Service,41.839209,-87.665610
369,12/31/2019 11:55:54 PM,Wood St & 35th St,11,11,6,5,45,In Service,41.830105,-87.670298
370,12/31/2019 11:55:54 PM,Calumet Ave & 21st St,15,15,8,7,47,In Service,41.854184,-87.619154
373,12/31/2019 11:55:54 PM,Kedzie Ave & Chicago Ave,11,11,4,7,64,In Service,41.895465,-87.706128
374,12/31/2019 11:55:54 PM,Western Ave & Walton St,23,23,17,6,26,In Service,41.898418,-87.686596
375,12/31/2019 11:55:54 PM,Sacramento Blvd & Franklin Blvd,11,11,9,2,18,In Service,41.890469,-87.702608
376,12/31/2019 11:55:54 PM,Artesian Ave & Hubbard St,35,35,23,12,34,In Service,41.889492,-87.688219
377,12/31/2019 11:55:54 PM,Kedzie Ave & Lake St,15,15,9,6,40,In Service,41.884603,-87.706304
378,12/31/2019 11:55:54 PM,California Ave & Lake St,11,11,5,6,55,In Service,41.884454,-87.696298
381,12/31/2019 11:55:54 PM,Western Ave & Monroe St,15,15,13,2,13,In Service,41.879788,-87.686113
382,12/31/2019 11:55:54 PM,Western Ave & Congress Pkwy,19,18,16,2,11,In Service,41.874749,-87.686445
383,12/31/2019 11:55:54 PM,Paulina St & Flournoy St,31,31,19,12,39,In Service,41.872950,-87.669130
384,12/31/2019 11:55:54 PM,Halsted St & 51st St,11,11,9,2,18,In Service,41.801832,-87.645214
385,12/31/2019 11:55:54 PM,Princeton Ave & Garfield Blvd,11,11,6,5,45,In Service,41.794982,-87.633124
386,12/31/2019 11:55:54 PM,Halsted St & 56th St,11,11,8,3,27,In Service,41.792930,-87.644990
388,12/31/2019 11:55:54 PM,Halsted St & 63rd St,11,11,8,3,27,In Service,41.779381,-87.644621
390,12/31/2019 11:55:54 PM,Wentworth Ave & 63rd St,11,11,8,3,27,In Service,41.780080,-87.629746
391,12/31/2019 11:55:54 PM,Halsted St & 69th St,11,11,7,4,36,In Service,41.769062,-87.644614
392,12/31/2019 11:55:54 PM,Perry Ave & 69th St,11,11,9,2,18,In Service,41.769293,-87.628196
393,12/31/2019 11:55:54 PM,Calumet Ave & 71st St,11,11,5,6,55,In Service,41.765508,-87.616918
394,12/31/2019 11:55:54 PM,Clark St & 9th St (AMLI),15,15,9,6,40,In Service,41.870816,-87.631246
395,12/31/2019 11:55:54 PM,Jeffery Blvd & 76th St,11,11,9,2,18,In Service,41.757120,-87.575839
396,12/31/2019 11:55:54 PM,Yates Blvd & 75th St,11,11,8,3,27,In Service,41.758768,-87.566440
398,12/31/2019 11:55:54 PM,Rainbow Beach,15,15,7,8,53,In Service,41.757871,-87.549386
399,12/31/2019 11:55:54 PM,South Shore Dr & 74th St,11,11,6,5,45,In Service,41.762189,-87.559275
400,12/31/2019 11:55:54 PM,Cottage Grove Ave & 71st St,11,11,7,4,36,In Service,41.765719,-87.604960
401,12/31/2019 11:55:54 PM,Shields Ave & 28th Pl,11,11,5,6,55,In Service,41.842733,-87.635491
402,12/31/2019 11:55:54 PM,Shields Ave & 31st St,15,15,8,7,47,In Service,41.838464,-87.635406
403,12/31/2019 11:55:54 PM,Wentworth Ave & 33rd St,15,15,9,6,40,In Service,41.834530,-87.631823
405,12/31/2019 11:55:54 PM,Wentworth Ave & 35th St,15,15,6,9,60,In Service,41.830777,-87.632504
406,12/31/2019 11:55:54 PM,Lake Park Ave & 35th St,19,19,12,7,37,In Service,41.831274,-87.608799
407,12/31/2019 11:55:54 PM,State St & Pershing Rd,11,11,3,8,73,In Service,41.823015,-87.626568
408,12/31/2019 11:55:54 PM,Union Ave & Root St,11,11,6,5,45,In Service,41.819102,-87.643278
409,12/31/2019 11:55:54 PM,Shields Ave & 43rd St,11,11,6,5,45,In Service,41.816208,-87.634819
410,12/31/2019 11:55:54 PM,Prairie Ave & 43rd St,15,15,8,7,47,In Service,41.816659,-87.619412
411,12/31/2019 11:55:54 PM,Halsted St & 47th Pl,11,11,9,2,18,In Service,41.808134,-87.645617
412,12/31/2019 11:55:54 PM,Princeton Ave & 47th St,11,11,8,3,27,In Service,41.809318,-87.633449
413,12/31/2019 11:55:54 PM,Woodlawn Ave & Lake Park Ave,15,15,13,2,13,In Service,41.814093,-87.597005
414,12/31/2019 11:55:54 PM,Canal St & Taylor St,15,15,10,5,33,In Service,41.870257,-87.639474
415,12/31/2019 11:55:54 PM,Calumet Ave & 51st St,11,11,4,7,64,In Service,41.802295,-87.618054
416,12/31/2019 11:55:54 PM,Dorchester Ave & 49th St,15,15,10,5,33,In Service,41.805772,-87.592464
417,12/31/2019 11:55:54 PM,Cornell Ave & Hyde Park Blvd,19,19,14,5,26,In Service,41.802406,-87.586924
418,12/31/2019 11:55:54 PM,Ellis Ave & 53rd St,7,7,3,4,57,In Service,41.799336,-87.600958
419,12/31/2019 11:55:54 PM,Lake Park Ave & 53rd St,15,15,13,2,13,In Service,41.799494,-87.586450
420,12/31/2019 11:55:54 PM,Ellis Ave & 55th St,19,19,17,2,11,In Service,41.794301,-87.601450
421,12/31/2019 11:55:54 PM,MLK Jr Dr & 56th St,11,11,9,2,18,In Service,41.793429,-87.615853
422,12/31/2019 11:55:54 PM,DuSable Museum,11,11,7,4,36,In Service,41.791568,-87.607852
423,12/31/2019 11:55:54 PM,University Ave & 57th St,31,31,29,2,6,In Service,41.791478,-87.599861
424,12/31/2019 11:55:54 PM,Museum of Science and Industry,27,27,23,4,15,In Service,41.791728,-87.583945
425,12/31/2019 11:55:54 PM,Harper Ave & 59th St,15,15,10,5,33,In Service,41.787943,-87.588315
426,12/31/2019 11:55:54 PM,Ellis Ave & 60th St,19,19,13,6,32,In Service,41.785097,-87.601073
427,12/31/2019 11:55:54 PM,Cottage Grove Ave & 63rd St,15,15,11,4,27,In Service,41.780599,-87.606112
428,12/31/2019 11:55:54 PM,Dorchester Ave & 63rd St,11,11,6,5,45,In Service,41.780406,-87.591416
429,12/31/2019 11:55:54 PM,Cottage Grove Ave & 67th St,11,11,8,3,27,In Service,41.773721,-87.605635
430,12/31/2019 11:55:54 PM,MLK Jr Dr & 63rd St,11,11,10,1,9,In Service,41.780081,-87.615943
431,12/31/2019 11:55:54 PM,Eberhart Ave & 61st St,11,11,6,5,45,In Service,41.784142,-87.613308
432,12/31/2019 11:55:54 PM,Clark St & Lunt Ave,19,19,9,10,53,In Service,42.009074,-87.674190
433,12/31/2019 11:55:54 PM,Kedzie Ave & Harrison St,11,11,6,5,45,In Service,41.873600,-87.704871
434,12/31/2019 11:55:54 PM,Ogden Ave & Roosevelt Rd,19,19,13,6,32,In Service,41.866501,-87.684697
435,12/31/2019 11:55:54 PM,Kedzie Ave & Roosevelt Rd,11,11,3,8,73,In Service,41.866493,-87.706496
436,12/31/2019 11:55:54 PM,Fairfield Ave & Roosevelt Rd,11,11,6,5,45,In Service,41.866624,-87.694521
437,12/31/2019 11:55:54 PM,Washtenaw Ave & Ogden Ave,15,15,11,4,27,In Service,41.861894,-87.693511
438,12/31/2019 11:55:54 PM,Central Park Ave & Ogden Ave,15,15,10,5,33,In Service,41.854204,-87.715406
439,12/31/2019 11:55:54 PM,Kedzie Ave & 21st St,11,11,7,4,36,In Service,41.853534,-87.705073
440,12/31/2019 11:55:54 PM,Central Park Ave & 24th St,11,11,7,4,36,In Service,41.848100,-87.715068
441,12/31/2019 11:55:54 PM,Kedzie Ave & 24th St,11,11,6,5,45,In Service,41.848191,-87.705414
442,12/31/2019 11:55:54 PM,California Ave & 23rd Pl,11,11,9,2,18,In Service,41.849110,-87.695140
443,12/31/2019 11:55:54 PM,Millard Ave & 26th St,7,7,4,3,43,In Service,41.844567,-87.715910
444,12/31/2019 11:55:54 PM,Albany Ave & 26th St,11,11,7,4,36,In Service,41.844475,-87.702013
445,12/31/2019 11:55:54 PM,California Ave & 26th St,11,11,6,5,45,In Service,41.844040,-87.695296
446,12/31/2019 11:55:54 PM,Western Ave & 28th St,11,11,4,7,64,In Service,41.841518,-87.685131
447,12/31/2019 11:55:54 PM,Glenwood Ave & Morse Ave,15,15,7,8,53,In Service,42.007972,-87.665502
448,12/31/2019 11:55:54 PM,Warren Park East,11,11,6,5,45,In Service,42.004550,-87.680666
449,12/31/2019 11:55:54 PM,Clark St & Columbia Ave,15,15,14,1,7,In Service,42.004451,-87.672402
450,12/31/2019 11:55:54 PM,Warren Park West,11,11,6,5,45,In Service,42.001785,-87.688829
451,12/31/2019 11:55:54 PM,Sheridan Rd & Loyola Ave,23,23,15,8,35,In Service,42.001044,-87.661198
452,12/31/2019 11:55:54 PM,Western Ave & Granville Ave,11,11,7,4,36,In Service,41.994161,-87.689438
453,12/31/2019 11:55:54 PM,Clark St & Schreiber Ave,15,15,6,9,60,In Service,41.999252,-87.671377
454,12/31/2019 11:55:54 PM,Broadway & Granville Ave,23,23,4,19,83,In Service,41.994780,-87.660285
455,12/31/2019 11:55:54 PM,Maplewood Ave & Peterson Ave,11,11,9,2,18,In Service,41.990236,-87.693370
456,12/31/2019 11:55:54 PM,2112 W Peterson Ave,11,11,3,8,73,In Service,41.991178,-87.683593
457,12/31/2019 11:55:54 PM,Clark St & Elmdale Ave,15,15,6,9,60,In Service,41.990518,-87.669834
458,12/31/2019 11:55:54 PM,Broadway & Thorndale Ave,19,19,12,7,37,In Service,41.989743,-87.660141
459,12/31/2019 11:55:54 PM,Lakefront Trail & Bryn Mawr Ave,19,19,10,9,47,In Service,41.984037,-87.652310
460,12/31/2019 11:55:54 PM,Clark St & Bryn Mawr Ave,15,15,12,3,20,In Service,41.983593,-87.669154
461,12/31/2019 11:55:54 PM,Broadway & Ridge Ave,15,15,12,3,20,In Service,41.984045,-87.660274
462,12/31/2019 11:55:54 PM,Winchester (Ravenswood) Ave & Balmoral Ave,15,15,5,10,67,In Service,41.979762,-87.677530
463,12/31/2019 11:55:54 PM,Clark St & Berwyn Ave,19,19,6,13,68,In Service,41.977997,-87.668047
464,12/31/2019 11:55:54 PM,Damen Ave & Foster Ave,15,14,5,9,64,In Service,41.975615,-87.679459
465,12/31/2019 11:55:54 PM,Marine Dr & Ainslie St,23,23,18,5,22,In Service,41.971600,-87.650154
466,12/31/2019 11:55:54 PM,Ridge Blvd & Touhy Ave,11,11,4,7,64,In Service,42.012132,-87.682913
467,12/31/2019 11:55:54 PM,Western Ave & Lunt Ave,15,15,11,4,27,In Service,42.008594,-87.690492
468,12/31/2019 11:55:54 PM,Budlong Woods Library,11,11,7,4,36,In Service,41.983665,-87.696423
469,12/31/2019 11:55:54 PM,St. Louis Ave & Balmoral Ave,15,15,10,5,33,In Service,41.980394,-87.716115
470,12/31/2019 11:55:54 PM,Kedzie Ave & Foster Ave,11,11,5,6,55,In Service,41.975672,-87.709261
471,12/31/2019 11:55:54 PM,Francisco Ave & Foster Ave,15,15,15,0,0,In Service,41.975633,-87.701419
472,12/31/2019 11:55:54 PM,Lincoln Ave & Winona St,15,15,2,13,87,In Service,41.974911,-87.692503
474,12/31/2019 11:55:54 PM,Christiana Ave & Lawrence Ave,15,15,5,10,67,In Service,41.968354,-87.711831
475,12/31/2019 11:55:54 PM,Washtenaw Ave & Lawrence Ave,15,15,8,7,47,In Service,41.968987,-87.696027
476,12/31/2019 11:55:54 PM,Kedzie Ave & Leland Ave,15,15,9,6,40,In Service,41.966686,-87.708052
477,12/31/2019 11:55:54 PM,Manor Ave & Leland Ave,11,11,5,6,55,In Service,41.965875,-87.700825
478,12/31/2019 11:55:54 PM,Rockwell St & Eastwood Ave,15,14,9,5,36,In Service,41.965900,-87.693638
479,12/31/2019 11:55:54 PM,Drake Ave & Montrose Ave,15,15,9,6,40,In Service,41.961154,-87.716569
480,12/31/2019 11:55:54 PM,Albany Ave & Montrose Ave,11,11,7,4,36,In Service,41.961041,-87.705866
481,12/31/2019 11:55:54 PM,California Ave & Montrose Ave,15,14,10,4,29,In Service,41.961068,-87.695439
482,12/31/2019 11:55:54 PM,Campbell Ave & Montrose Ave,15,15,9,6,40,In Service,41.961526,-87.691165
483,12/31/2019 11:55:54 PM,Avondale Ave & Irving Park Rd,19,19,18,1,5,In Service,41.953393,-87.732002
484,12/31/2019 11:55:54 PM,Monticello Ave & Irving Park Rd,15,15,6,9,60,In Service,41.954005,-87.719128
485,12/31/2019 11:55:54 PM,Sawyer Ave & Irving Park Rd,15,15,9,6,40,In Service,41.953586,-87.709311
486,12/31/2019 11:55:54 PM,Oakley Ave & Irving Park Rd,15,15,4,11,73,In Service,41.954341,-87.686080
487,12/31/2019 11:55:54 PM,California Ave & Byron St,19,19,14,5,26,In Service,41.952162,-87.698051
488,12/31/2019 11:55:54 PM,Pulaski Rd & Eddy St (Temp),11,11,7,4,36,In Service,41.946264,-87.731023
489,12/31/2019 11:55:54 PM,Drake Ave & Addison St,15,15,7,8,53,In Service,41.947326,-87.717582
490,12/31/2019 11:55:54 PM,Troy St & Elston Ave,15,15,12,3,20,In Service,41.945244,-87.706650
491,12/31/2019 11:55:54 PM,Talman Ave & Addison St,15,15,5,10,67,In Service,41.946636,-87.694615
492,12/31/2019 11:55:54 PM,Leavitt St & Addison St,15,15,3,12,80,In Service,41.946655,-87.683359
493,12/31/2019 11:55:54 PM,Western Ave & Roscoe St,11,11,7,4,36,In Service,41.943034,-87.687288
494,12/31/2019 11:55:54 PM,Kedzie Ave & Bryn Mawr Ave,15,15,6,9,60,In Service,41.982397,-87.708923
495,12/31/2019 11:55:54 PM,Keystone Ave & Montrose Ave,11,11,2,9,82,In Service,41.961108,-87.728970
496,12/31/2019 11:55:54 PM,Avers Ave & Belmont Ave,11,11,6,5,45,In Service,41.939408,-87.723574
497,12/31/2019 11:55:54 PM,Kimball Ave & Belmont Ave,15,15,9,6,40,In Service,41.939398,-87.711561
498,12/31/2019 11:55:54 PM,California Ave & Fletcher St,19,19,9,10,53,In Service,41.938429,-87.698008
499,12/31/2019 11:55:54 PM,Kosciuszko Park,15,15,12,3,20,In Service,41.930585,-87.723777
500,12/31/2019 11:55:54 PM,Central Park Ave & Elbridge Ave,15,15,14,1,7,In Service,41.935337,-87.716889
501,12/31/2019 11:55:54 PM,Richmond St & Diversey Ave,15,15,4,11,73,In Service,41.931902,-87.701195
502,12/31/2019 11:55:54 PM,California Ave & Altgeld St,15,15,5,10,67,In Service,41.926690,-87.697668
503,12/31/2019 11:55:54 PM,Drake Ave & Fullerton Ave,15,15,12,3,20,In Service,41.924399,-87.715441
504,12/31/2019 11:55:54 PM,Campbell Ave & Fullerton Ave,15,15,9,6,40,In Service,41.924632,-87.689307
505,12/31/2019 11:55:54 PM,Winchester Ave & Elston Ave,15,15,8,7,47,In Service,41.924091,-87.676460
506,12/31/2019 11:55:54 PM,Spaulding Ave & Armitage Ave,15,15,13,2,13,In Service,41.917108,-87.710221
507,12/31/2019 11:55:54 PM,Humboldt Blvd & Armitage Ave,19,19,12,7,37,In Service,41.917513,-87.701809
508,12/31/2019 11:55:54 PM,Central Park Ave & North Ave,15,15,10,5,33,In Service,41.909657,-87.716632
509,12/31/2019 11:55:54 PM,Troy St & North Ave,15,15,13,2,13,In Service,41.909769,-87.705280
510,12/31/2019 11:55:54 PM,Spaulding Ave & Division St,11,11,4,7,64,In Service,41.902707,-87.709220
511,12/31/2019 11:55:54 PM,Albany Ave & Bloomingdale Ave,15,15,11,4,27,In Service,41.914027,-87.705126
514,12/31/2019 11:55:54 PM,Ridge Blvd & Howard St,11,11,7,4,36,In Service,42.019276,-87.684520
515,12/31/2019 11:55:54 PM,Paulina St & Howard St,19,19,14,5,26,In Service,42.019159,-87.673573
517,12/31/2019 11:55:54 PM,Clark St & Jarvis Ave,11,10,6,4,40,In Service,42.015963,-87.675005
518,12/31/2019 11:55:54 PM,Conservatory Dr & Lake St,11,11,7,4,36,In Service,41.885502,-87.716866
519,12/31/2019 11:55:54 PM,Wolcott Ave & Fargo Ave,11,11,5,6,55,In Service,42.016977,-87.677725
520,12/31/2019 11:55:54 PM,Greenview Ave & Jarvis Ave,19,19,9,10,53,In Service,42.015962,-87.668570
522,12/31/2019 11:55:54 PM,Bosworth Ave & Howard St,11,11,8,3,27,In Service,42.019537,-87.669563
523,12/31/2019 11:55:54 PM,Eastlake Ter & Rogers Ave,15,15,9,6,40,In Service,42.020853,-87.665034
524,12/31/2019 11:55:54 PM,Austin Blvd & Chicago Ave,7,7,4,3,43,In Service,41.894887,-87.774704
525,12/31/2019 11:55:54 PM,Glenwood Ave & Touhy Ave,15,15,12,3,20,In Service,42.012701,-87.666058
526,12/31/2019 11:55:54 PM,Oakley Ave & Touhy Ave,11,11,5,6,55,In Service,42.012342,-87.688243
527,12/31/2019 11:55:54 PM,Western Ave & Howard St,15,15,11,4,27,In Service,42.018901,-87.690048
528,12/31/2019 11:55:54 PM,Pulaski Rd & Lake St,11,11,5,6,55,In Service,41.885409,-87.726491
529,12/31/2019 11:55:54 PM,Cicero Ave & Lake St,11,11,10,1,9,In Service,41.886841,-87.745261
530,12/31/2019 11:55:54 PM,Laramie Ave & Kinzie St,11,11,6,5,45,In Service,41.887832,-87.755527
531,12/31/2019 11:55:54 PM,Central Ave & Lake St,11,11,5,6,55,In Service,41.887664,-87.765469
532,12/31/2019 11:55:54 PM,Austin Blvd & Lake St,11,11,10,1,9,In Service,41.887919,-87.774446
533,12/31/2019 11:55:54 PM,Central Park Blvd & 5th Ave,11,11,8,3,27,In Service,41.875679,-87.715470
534,12/31/2019 11:55:54 PM,Karlov Ave & Madison St,11,11,9,2,18,In Service,41.880850,-87.727907
535,12/31/2019 11:55:54 PM,Pulaski Rd & Congress Pkwy,11,11,6,5,45,In Service,41.874325,-87.725704
536,12/31/2019 11:55:54 PM,Kostner Ave & Lake St,11,11,5,6,55,In Service,41.885928,-87.735410
537,12/31/2019 11:55:54 PM,Kenton Ave & Madison St,11,11,8,3,27,In Service,41.880708,-87.741018
538,12/31/2019 11:55:54 PM,Cicero Ave & Flournoy St,11,11,6,5,45,In Service,41.872131,-87.746619
539,12/31/2019 11:55:54 PM,Cicero Ave & Quincy St,11,11,7,4,36,In Service,41.877613,-87.745405
540,12/31/2019 11:55:54 PM,Laramie Ave & Madison St,11,11,10,1,9,In Service,41.880207,-87.755337
541,12/31/2019 11:55:54 PM,Central Ave & Harrison St,11,11,8,3,27,In Service,41.872993,-87.764499
542,12/31/2019 11:55:54 PM,Central Ave & Madison St,11,11,6,5,45,In Service,41.880121,-87.763238
543,12/31/2019 11:55:54 PM,Laramie Ave & Gladys Ave,11,11,8,3,27,In Service,41.875806,-87.755285
544,12/31/2019 11:55:54 PM,Austin Blvd & Madison St,11,11,7,4,36,In Service,41.880281,-87.774453
545,12/31/2019 11:55:54 PM,Kostner Ave & Adams St,11,11,8,3,27,In Service,41.877917,-87.735737
546,12/31/2019 11:55:54 PM,Damen Ave & Pershing Rd,11,11,5,6,55,In Service,41.823192,-87.676597
547,12/31/2019 11:55:54 PM,Ashland Ave & Pershing Rd,11,11,3,8,73,In Service,41.823465,-87.665577
548,12/31/2019 11:55:54 PM,Morgan St & Pershing Rd,7,7,6,1,14,In Service,41.823613,-87.650931
549,12/31/2019 11:55:54 PM,Marshfield Ave & 44th St,11,11,7,4,36,In Service,41.813996,-87.666589
550,12/31/2019 11:55:54 PM,Central Ave & Chicago Ave,11,11,9,2,18,In Service,41.894958,-87.764902
551,12/31/2019 11:55:54 PM,Hoyne Ave & 47th St,11,11,5,6,55,In Service,41.808227,-87.677180
552,12/31/2019 11:55:54 PM,Ashland Ave & McDowell Ave,11,11,11,0,0,In Service,41.808870,-87.664540
553,12/31/2019 11:55:54 PM,Elizabeth St & 47th St,11,11,7,4,36,In Service,41.808390,-87.656526
554,12/31/2019 11:55:54 PM,Damen Ave & 51st St,7,7,5,2,29,In Service,41.800908,-87.674684
555,12/31/2019 11:55:54 PM,Ashland Ave & 50th St,11,11,8,3,27,In Service,41.803023,-87.664699
556,12/31/2019 11:55:54 PM,Throop St & 52nd St,7,7,2,5,71,In Service,41.799659,-87.657195
557,12/31/2019 11:55:54 PM,Seeley Ave & Garfield Blvd,11,11,6,5,45,In Service,41.794087,-87.675478
558,12/31/2019 11:55:54 PM,Ashland Ave & Garfield Blvd,11,11,2,9,82,In Service,41.792822,-87.664429
559,12/31/2019 11:55:54 PM,Racine Ave & Garfield Blvd,11,11,8,3,27,In Service,41.794228,-87.655073
560,12/31/2019 11:55:54 PM,Marshfield Ave & 59th St,11,11,7,4,36,In Service,41.786833,-87.666215
561,12/31/2019 11:55:54 PM,Damen Ave & 59th St,11,11,9,2,18,In Service,41.786020,-87.674167
562,12/31/2019 11:55:54 PM,Racine Ave & 61st St,11,11,9,2,18,In Service,41.783189,-87.654372
563,12/31/2019 11:55:54 PM,Ashland Ave & 63rd St,11,11,4,7,64,In Service,41.779374,-87.664843
564,12/31/2019 11:55:54 PM,Racine Ave & 65th St,11,11,7,4,36,In Service,41.775393,-87.654308
565,12/31/2019 11:55:54 PM,Ashland Ave & 66th St,7,7,5,2,29,In Service,41.774074,-87.663815
566,12/31/2019 11:55:54 PM,Ashland Ave & 69th St,11,11,8,3,27,In Service,41.768726,-87.664069
567,12/31/2019 11:55:54 PM,May St & 69th St,11,11,7,4,36,In Service,41.768938,-87.652934
568,12/31/2019 11:55:54 PM,Vincennes Ave & 75th St,7,7,4,3,43,In Service,41.757970,-87.631210
569,12/31/2019 11:55:54 PM,Woodlawn Ave & 75th St,11,11,7,4,36,In Service,41.759160,-87.595751
570,12/31/2019 11:55:54 PM,Evans Ave & 75th St,7,7,2,5,71,In Service,41.758490,-87.606410
571,12/31/2019 11:55:54 PM,Vernon Ave & 75th St,11,11,7,4,36,In Service,41.758361,-87.614138
572,12/31/2019 11:55:54 PM,State St & 76th St,11,11,9,2,18,In Service,41.756971,-87.624621
573,12/31/2019 11:55:54 PM,State St & 79th St,11,11,9,2,18,In Service,41.750794,-87.624424
574,12/31/2019 11:55:54 PM,Vernon Ave & 79th St,11,11,7,4,36,In Service,41.750940,-87.613790
575,12/31/2019 11:55:54 PM,Cottage Grove Ave & 78th St,11,11,7,4,36,In Service,41.753174,-87.605026
576,12/31/2019 11:55:54 PM,Greenwood Ave & 79th St,11,11,8,3,27,In Service,41.751294,-87.597552
577,12/31/2019 11:55:54 PM,Stony Island Ave & South Chicago Ave,11,11,6,5,45,In Service,41.751173,-87.585337
578,12/31/2019 11:55:54 PM,Bennett Ave & 79th St,11,11,7,4,36,In Service,41.751785,-87.578496
579,12/31/2019 11:55:54 PM,Phillips Ave & 79th St,11,11,8,3,27,In Service,41.751820,-87.565211
580,12/31/2019 11:55:54 PM,Exchange Ave & 79th St,11,11,8,3,27,In Service,41.751731,-87.552812
581,12/31/2019 11:55:54 PM,Commercial Ave & 83rd St,11,11,6,5,45,In Service,41.744615,-87.551208
582,12/31/2019 11:55:54 PM,Phillips Ave & 83rd St,11,11,5,6,55,In Service,41.744531,-87.565060
583,12/31/2019 11:55:54 PM,Stony Island Ave & 82nd St,11,11,7,4,36,In Service,41.746559,-87.586005
584,12/31/2019 11:55:54 PM,Ellis Ave & 83rd St,11,11,8,3,27,In Service,41.744123,-87.599034
585,12/31/2019 11:55:54 PM,Cottage Grove Ave & 83rd St,11,11,7,4,36,In Service,41.743441,-87.604836
586,12/31/2019 11:55:54 PM,MLK Jr Dr & 83rd St,11,11,5,6,55,In Service,41.743116,-87.614800
587,12/31/2019 11:55:54 PM,Wabash Ave & 83rd St,11,11,7,4,36,In Service,41.743316,-87.622849
588,12/31/2019 11:55:54 PM,South Chicago Ave & 83rd St,11,11,7,4,36,In Service,41.743921,-87.575225
589,12/31/2019 11:55:54 PM,Milwaukee Ave & Cuyler Ave,11,11,6,5,45,In Service,41.954468,-87.749594
590,12/31/2019 11:55:54 PM,Kilbourn Ave & Irving Park Rd,11,11,6,5,45,In Service,41.953733,-87.740569
591,12/31/2019 11:55:54 PM,Kilbourn Ave & Milwaukee Ave,15,15,6,9,60,In Service,41.948818,-87.740020
592,12/31/2019 11:55:54 PM,Knox Ave & Montrose Ave,11,11,4,7,64,In Service,41.960631,-87.745359
593,12/31/2019 11:55:54 PM,Halsted St & 59th St,11,11,5,6,55,In Service,41.787539,-87.644874
594,12/31/2019 11:55:54 PM,Western Blvd & 48th Pl,11,11,5,6,55,In Service,41.805661,-87.683392
595,12/31/2019 11:55:54 PM,Wabash Ave & 87th St,11,11,10,1,9,In Service,41.736646,-87.622634
596,12/31/2019 11:55:54 PM,Benson Ave & Church St,15,15,7,8,53,In Service,42.048214,-87.683485
597,12/31/2019 11:55:54 PM,Chicago Ave & Washington St,15,15,7,8,53,In Service,42.032562,-87.679101
598,12/31/2019 11:55:54 PM,Elmwood Ave & Austin St,15,15,6,9,60,In Service,42.025784,-87.684107
599,12/31/2019 11:55:54 PM,Valli Produce - Evanston Plaza,15,15,3,12,80,In Service,42.039742,-87.699413
600,12/31/2019 11:55:54 PM,Dodge Ave & Church St,15,15,10,5,33,In Service,42.048308,-87.698224
601,12/31/2019 11:55:54 PM,Central St Metra,15,15,12,3,20,In Service,42.063598,-87.698730
602,12/31/2019 11:55:54 PM,Central St & Girard Ave,15,15,4,11,73,In Service,42.064313,-87.686152
603,12/31/2019 11:55:54 PM,Chicago Ave & Sheridan Rd,15,15,6,9,60,In Service,42.050491,-87.677821
604,12/31/2019 11:55:54 PM,Sheridan Rd & Noyes St (NU),15,15,12,3,20,In Service,42.058239,-87.677432
605,12/31/2019 11:55:54 PM,University Library (NU),15,15,4,11,73,In Service,42.052939,-87.673447
619,12/31/2019 11:55:54 PM,Keystone Ave & Fullerton Ave,11,11,2,9,82,In Service,41.924590,-87.727850
620,12/31/2019 11:55:54 PM,Orleans St & Chestnut St (NEXT Apts),15,15,10,5,33,In Service,41.898203,-87.637536
621,12/31/2019 11:55:54 PM,Aberdeen St & Randolph St,15,15,14,1,7,In Service,41.884114,-87.654264
622,12/31/2019 11:55:54 PM,California Ave & Cortez St,15,15,12,3,20,In Service,41.900363,-87.696704
623,12/31/2019 11:55:54 PM,Michigan Ave & 8th St,43,43,32,11,26,In Service,41.872773,-87.623981
624,12/31/2019 11:55:54 PM,Dearborn St & Van Buren St,15,15,15,0,0,In Service,41.876268,-87.629155
625,12/31/2019 11:55:54 PM,Chicago Ave & Dempster St,15,15,7,8,53,In Service,42.041691,-87.680687
626,12/31/2019 11:55:54 PM,Delano Ct & Roosevelt Rd,19,19,14,5,26,In Service,41.867491,-87.632190
627,12/31/2019 11:55:54 PM,LaSalle Dr & Huron St,19,19,16,3,16,In Service,41.894877,-87.632326
628,12/31/2019 11:55:54 PM,Walsh Park,23,23,20,3,13,In Service,41.914610,-87.667968
630,12/31/2019 11:55:54 PM,Kildare Ave & Montrose Ave,15,15,11,4,27,In Service,41.961080,-87.735690
631,12/31/2019 11:55:54 PM,Malcolm X College,19,19,12,7,37,In Service,41.877618,-87.673895
632,12/31/2019 11:55:54 PM,Clark St & Newport St,15,15,12,3,20,In Service,41.944540,-87.654678
635,12/31/2019 11:55:54 PM,Fairbanks St & Superior St,11,11,9,2,18,In Service,41.895748,-87.620104
636,12/31/2019 11:55:54 PM,Orleans St & Hubbard St,11,11,5,6,55,In Service,41.890028,-87.636618
637,12/31/2019 11:55:54 PM,Wood St & Chicago Ave (*),16,16,8,8,50,In Service,41.895634,-87.672069
638,12/31/2019 11:55:54 PM,Clinton St & Jackson Blvd,23,23,15,8,35,In Service,41.878116,-87.639838
639,12/31/2019 11:55:54 PM,Lakefront Trail & Wilson Ave,15,15,6,9,60,In Service,41.965845,-87.645361
640,12/31/2019 11:55:54 PM,Bernard St & Elston Ave,11,11,9,2,18,In Service,41.949923,-87.713949
641,12/31/2019 11:55:54 PM,Central Park Ave & Bloomingdale Ave,11,11,8,3,27,In Service,41.914166,-87.716755
642,12/31/2019 11:55:54 PM,Latrobe Ave & Chicago Ave,7,7,6,1,14,In Service,41.894745,-87.756895
643,12/31/2019 11:55:54 PM,Smith Park (*),16,16,11,5,31,In Service,41.892048,-87.689397
644,12/31/2019 11:55:54 PM,Western Ave & Fillmore St (*),12,12,6,6,50,In Service,41.868563,-87.686234
645,12/31/2019 11:55:54 PM,Archer (Damen) Ave & 37th St,11,10,7,3,30,In Service,41.826712,-87.683144
646,12/31/2019 11:55:54 PM,State St & 54th St,11,11,5,6,55,In Service,41.796642,-87.625923
647,12/31/2019 11:55:54 PM,Elizabeth St & 59th St,7,7,4,3,43,In Service,41.786691,-87.655859
648,12/31/2019 11:55:54 PM,Carpenter St & 63rd St,7,7,3,4,57,In Service,41.779870,-87.650919
649,12/31/2019 11:55:54 PM,Stewart Ave & 63rd St (*),12,12,5,7,58,In Service,41.779835,-87.634774
650,12/31/2019 11:55:54 PM,Eggleston Ave & 69th St (*),12,11,7,4,36,In Service,41.768898,-87.635876
651,12/31/2019 11:55:54 PM,Michigan Ave & 71st St,7,7,5,2,29,In Service,41.765286,-87.621748
652,12/31/2019 11:55:54 PM,Rhodes Ave & 71st St,11,11,6,5,45,In Service,41.766000,-87.611726
653,12/31/2019 11:55:54 PM,Cornell Dr & Hayes Dr,11,11,8,3,27,In Service,41.780595,-87.584846
654,12/31/2019 11:55:54 PM,Racine Ave & Washington Blvd (*),12,12,5,7,58,In Service,41.883073,-87.656952
655,12/31/2019 11:55:54 PM,Hoyne Ave & Balmoral Ave,15,15,7,8,53,In Service,41.979851,-87.681932
656,12/31/2019 11:55:54 PM,Damen Ave & Walnut (Lake) St (*),16,16,10,6,38,In Service,41.885951,-87.677009
657,12/31/2019 11:55:54 PM,Wood St & Augusta Blvd,15,15,5,10,67,In Service,41.899181,-87.672200
658,12/31/2019 11:55:54 PM,Leavitt St & Division St (*),16,16,10,6,38,In Service,41.902997,-87.683825
659,12/31/2019 11:55:54 PM,Leavitt St & Chicago Ave,15,15,8,7,47,In Service,41.895501,-87.682017
660,12/31/2019 11:55:54 PM,Sheridan Rd & Columbia Ave,15,15,10,5,33,In Service,42.004583,-87.661406
661,12/31/2019 11:55:54 PM,Evanston Civic Center,15,15,6,9,60,In Service,42.057044,-87.686554
662,12/31/2019 11:55:54 PM,Dodge Ave & Mulford St,15,15,10,5,33,In Service,42.023463,-87.699595
663,12/31/2019 11:55:54 PM,Lincolnwood Dr & Central St,15,15,3,12,80,In Service,42.064854,-87.715297
664,12/31/2019 11:55:54 PM,Leavitt St & Belmont Ave (*),16,16,4,12,75,In Service,41.939354,-87.683282
665,12/31/2019 11:55:54 PM,South Chicago Ave & Elliot Ave,7,7,6,1,14,In Service,41.747363,-87.580046
666,12/31/2019 11:55:54 PM,Cherry Ave & Blackhawk St,15,15,6,9,60,In Service,41.907221,-87.655618
672,12/31/2019 11:55:54 PM,Franklin St & Illinois St,11,11,3,8,73,In Service,41.891023,-87.635480
673,12/31/2019 11:55:54 PM,Lincoln Park Conservatory,31,31,23,8,26,In Service,41.923931,-87.635825
